[
    {
      "name": "Mumbai",
      "state": "Maharashtra",
      "population": 12442373,
      "latitude": 19.0760,
      "longitude": 72.8777
    },
    {
      "name": "Delhi",
      "state": "Delhi",
      "population": 11007835,
      "latitude": 28.7041,
      "longitude": 77.1025
    },
    {
      "name": "Bangalore",
      "state": "Karnataka",
      "population": 8443675,
      "latitude": 12.9716,
      "longitude": 77.5946
    },
    {
      "name": "Hyderabad",
      "state": "Telangana",
      "population": 6809970,
      "latitude": 17.3850,
      "longitude": 78.4867
    },
    {
      "name": "Ahmedabad",
      "state": "Gujarat",
      "population": 5570585,
      "latitude": 23.0225,
      "longitude": 72.5714
    },
    {
      "name": "Chennai",
      "state": "Tamil Nadu",
      "population": 4681087,
      "latitude": 13.0827,
      "longitude": 80.2707
    },
    {
      "name": "Kolkata",
      "state": "West Bengal",
      "population": 4486679,
      "latitude": 22.5726,
      "longitude": 88.3639
    },
    {
      "name": "Surat",
      "state": "Gujarat",
      "population": 4467797,
      "latitude": 21.1702,
      "longitude": 72.8311
    },
    {
      "name": "Pune",
      "state": "Maharashtra",
      "population": 3124458,
      "latitude": 18.5204,
      "longitude": 73.8567
    },
    {
      "name": "Jaipur",
      "state": "Rajasthan",
      "population": 3046163,
      "latitude": 26.9124,
      "longitude": 75.7873
    },
    {
      "name": "Lucknow",
      "state": "Uttar Pradesh",
      "population": 2817105,
      "latitude": 26.8467,
      "longitude": 80.9462
    },
    {
      "name": "Kanpur",
      "state": "Uttar Pradesh",
      "population": 2765158,
      "latitude": 26.4499,
      "longitude": 80.3319
    },
    {
      "name": "Nagpur",
      "state": "Maharashtra",
      "population": 2405665,
      "latitude": 21.1458,
      "longitude": 79.0882
    },
    {
      "name": "Indore",
      "state": "Madhya Pradesh",
      "population": 2468403,
      "latitude": 22.7196,
      "longitude": 75.8577
    },
    {
      "name": "Thane",
      "state": "Maharashtra",
      "population": 1841488,
      "latitude": 19.2183,
      "longitude": 72.9781
    },
    {
      "name": "Bhopal",
      "state": "Madhya Pradesh",
      "population": 1798218,
      "latitude": 23.2599,
      "longitude": 77.4126
    },
    {
      "name": "Visakhapatnam",
      "state": "Andhra Pradesh",
      "population": 1730320,
      "latitude": 17.6868,
      "longitude": 83.2185
    },
    {
      "name": "Pimpri-Chinchwad",
      "state": "Maharashtra",
      "population": 1729359,
      "latitude": 18.6279,
      "longitude": 73.8000
    },
    {
      "name": "Patna",
      "state": "Bihar",
      "population": 1683200,
      "latitude": 25.5941,
      "longitude": 85.1376
    },
    {
      "name": "Vadodara",
      "state": "Gujarat",
      "population": 1670806,
      "latitude": 22.3072,
      "longitude": 73.1812
    },
    {
      "name": "Ghaziabad",
      "state": "Uttar Pradesh",
      "population": 1648643,
      "latitude": 28.6692,
      "longitude": 77.4538
    },
    {
      "name": "Ludhiana",
      "state": "Punjab",
      "population": 1618735,
      "latitude": 30.9000,
      "longitude": 75.8573
    },
    {
      "name": "Agra",
      "state": "Uttar Pradesh",
      "population": 1599954,
      "latitude": 27.1767,
      "longitude": 78.0081
    },
    {
      "name": "Nashik",
      "state": "Maharashtra",
      "population": 1486053,
      "latitude": 19.9975,
      "longitude": 73.7898
    },
    {
      "name": "Faridabad",
      "state": "Haryana",
      "population": 1414050,
      "latitude": 28.4089,
      "longitude": 77.3178
    },
    {
      "name": "Meerut",
      "state": "Uttar Pradesh",
      "population": 1305429,
      "latitude": 28.9845,
      "longitude": 77.7064
    },
    {
      "name": "Rajkot",
      "state": "Gujarat",
      "population": 1286678,
      "latitude": 22.3039,
      "longitude": 70.8022
    },
    {
      "name": "Kalyan-Dombivli",
      "state": "Maharashtra",
      "population": 1241255,
      "latitude": 19.2350,
      "longitude": 73.1296
    },
    {
      "name": "Vasai-Virar",
      "state": "Maharashtra",
      "population": 1221233,
      "latitude": 19.3896,
      "longitude": 72.8329
    },
    {
      "name": "Varanasi",
      "state": "Uttar Pradesh",
      "population": 1217100,
      "latitude": 25.3176,
      "longitude": 82.9739
    },
    {
      "name": "Srinagar",
      "state": "Jammu and Kashmir",
      "population": 1205483,
      "latitude": 34.0836,
      "longitude": 74.7973
    },
    {
      "name": "Aurangabad",
      "state": "Maharashtra",
      "population": 1171093,
      "latitude": 19.8762,
      "longitude": 75.3433
    },
    {
      "name": "Dhanbad",
      "state": "Jharkhand",
      "population": 1162426,
      "latitude": 23.7957,
      "longitude": 86.4304
    },
    {
      "name": "Amritsar",
      "state": "Punjab",
      "population": 1132383,
      "latitude": 31.6340,
      "longitude": 74.8723
    },
    {
      "name": "Navi Mumbai",
      "state": "Maharashtra",
      "population": 1119482,
      "latitude": 19.0330,
      "longitude": 73.0297
    },
    {
      "name": "Allahabad",
      "state": "Uttar Pradesh",
      "population": 1117094,
      "latitude": 25.4358,
      "longitude": 81.8463
    },
    {
      "name": "Howrah",
      "state": "West Bengal",
      "population": 1077196,
      "latitude": 22.5958,
      "longitude": 88.2636
    },
    {
      "name": "Ranchi",
      "state": "Jharkhand",
      "population": 1073440,
      "latitude": 23.3441,
      "longitude": 85.3096
    },
    {
      "name": "Coimbatore",
      "state": "Tamil Nadu",
      "population": 1061393,
      "latitude": 11.0168,
      "longitude": 76.9558
    },
    {
      "name": "Jabalpur",
      "state": "Madhya Pradesh",
      "population": 1030168,
      "latitude": 23.1815,
      "longitude": 79.9864
    },
    {
      "name": "Gwalior",
      "state": "Madhya Pradesh",
      "population": 1001982,
      "latitude": 26.2183,
      "longitude": 78.1828
    },
    {
      "name": "Vijayawada",
      "state": "Andhra Pradesh",
      "population": 1001653,
      "latitude": 16.5062,
      "longitude": 80.6480
    },
    {
      "name": "Jodhpur",
      "state": "Rajasthan",
      "population": 995000,
      "latitude": 26.2389,
      "longitude": 73.0243
    },
    {
      "name": "Madurai",
      "state": "Tamil Nadu",
      "population": 977856,
      "latitude": 9.9252,
      "longitude": 78.1198
    },
    {
      "name": "Raipur",
      "state": "Chhattisgarh",
      "population": 969543,
      "latitude": 21.2514,
      "longitude": 81.6296
    },
    {
      "name": "Kota",
      "state": "Rajasthan",
      "population": 951023,
      "latitude": 25.2138,
      "longitude": 75.8648
    },
    {
      "name": "Chandigarh",
      "state": "Chandigarh",
      "population": 960787,
      "latitude": 30.7333,
      "longitude": 76.7794
    },
    {
      "name": "Guwahati",
      "state": "Assam",
      "population": 957352,
      "latitude": 26.1445,
      "longitude": 91.7362
    },
    {
      "name": "Solapur",
      "state": "Maharashtra",
      "population": 951558,
      "latitude": 17.6599,
      "longitude": 75.9064
    },
    {
      "name": "Hubballi-Dharwad",
      "state": "Karnataka",
      "population": 943857,
      "latitude": 15.3647,
      "longitude": 75.1240
    },
    {
      "name": "Bareilly",
      "state": "Uttar Pradesh",
      "population": 940435,
      "latitude": 28.3670,
      "longitude": 79.4304
    },
    {
      "name": "Moradabad",
      "state": "Uttar Pradesh",
      "population": 930115,
      "latitude": 28.8389,
      "longitude": 78.7735
    },
    {
      "name": "Mysore",
      "state": "Karnataka",
      "population": 893062,
      "latitude": 12.2958,
      "longitude": 76.6394
    },
    {
      "name": "Gurgaon",
      "state": "Haryana",
      "population": 876824,
      "latitude": 28.4595,
      "longitude": 77.0266
    },
    {
      "name": "Aligarh",
      "state": "Uttar Pradesh",
      "population": 871247,
      "latitude": 27.8974,
      "longitude": 78.0880
    },
    {
      "name": "Jalandhar",
      "state": "Punjab",
      "population": 873725,
      "latitude": 31.3260,
      "longitude": 75.5762
    },
    {
      "name": "Tiruchirappalli",
      "state": "Tamil Nadu",
      "population": 870660,
      "latitude": 10.7905,
      "longitude": 78.7047
    },
    {
      "name": "Bhubaneswar",
      "state": "Odisha",
      "population": 837737,
      "latitude": 20.2961,
      "longitude": 85.8245
    },
    {
      "name": "Salem",
      "state": "Tamil Nadu",
      "population": 830267,
      "latitude": 11.6643,
      "longitude": 78.1460
    },
    {
      "name": "Warangal",
      "state": "Telangana",
      "population": 828985,
      "latitude": 17.9689,
      "longitude": 79.5941
    },
    {
      "name": "Bhiwandi",
      "state": "Maharashtra",
      "population": 814655,
      "latitude": 19.2813,
      "longitude": 73.0481
    },
    {
      "name": "Saharanpur",
      "state": "Uttar Pradesh",
      "population": 820490,
      "latitude": 29.9640,
      "longitude": 77.5460
    },
    {
      "name": "Guntur",
      "state": "Andhra Pradesh",
      "population": 816160,
      "latitude": 16.3067,
      "longitude": 80.4365
    },
    {
      "name": "Amravati",
      "state": "Maharashtra",
      "population": 806963,
      "latitude": 20.9320,
      "longitude": 77.7523
    },
    {
      "name": "Bikaner",
      "state": "Rajasthan",
      "population": 806226,
      "latitude": 28.0229,
      "longitude": 73.3119
    },
    {
      "name": "Noida",
      "state": "Uttar Pradesh",
      "population": 781686,
      "latitude": 28.5355,
      "longitude": 77.3910
    },
    {
      "name": "Jamshedpur",
      "state": "Jharkhand",
      "population": 779336,
      "latitude": 22.8046,
      "longitude": 86.2029
    },
    {
      "name": "Bhilai",
      "state": "Chhattisgarh",
      "population": 777497,
      "latitude": 21.1901,
      "longitude": 81.2849
    },
    {
      "name": "Cuttack",
      "state": "Odisha",
      "population": 649032,
      "latitude": 20.4625,
      "longitude": 85.8821
    },
    {
      "name": "Firozabad",
      "state": "Uttar Pradesh",
      "population": 647608,
      "latitude": 27.1596,
      "longitude": 78.3953
    },
    {
      "name": "Kochi",
      "state": "Kerala",
      "population": 604696,
      "latitude": 9.9312,
      "longitude": 76.2673
    },
    {
      "name": "Bhavnagar",
      "state": "Gujarat",
      "population": 593768,
      "latitude": 21.7645,
      "longitude": 72.1519
    },
    {
      "name": "Dehradun",
      "state": "Uttarakhand",
      "population": 578420,
      "latitude": 30.3165,
      "longitude": 78.0322
    },
    {
      "name": "Durgapur",
      "state": "West Bengal",
      "population": 566517,
      "latitude": 23.5204,
      "longitude": 87.3119
    },
    {
      "name": "Asansol",
      "state": "West Bengal",
      "population": 563917,
      "latitude": 23.6739,
      "longitude": 86.9524
    },
    {
      "name": "Nanded",
      "state": "Maharashtra",
      "population": 550564,
      "latitude": 19.1383,
      "longitude": 77.3210
    },
    {
      "name": "Kolhapur",
      "state": "Maharashtra",
      "population": 549283,
      "latitude": 16.7050,
      "longitude": 74.2433
    }
  ]
  